[
  {"code":"JKT01","name":"Stasiun Jakarta Pusat","city":"Jakarta","lat":-6.1763,"lng":106.8306},
  {"code":"BDG01","name":"Stasiun Bandung Kota","city":"Bandung","lat":-6.9147,"lng":107.6098},
  {"code":"SBY01","name":"Stasiun Surabaya Kota","city":"Surabaya","lat":-7.2575,"lng":112.7521},
  {"code":"YGY01","name":"Stasiun Yogyakarta Kota","city":"Yogyakarta","lat":-7.7971,"lng":110.3705},
  {"code":"SMG01","name":"Stasiun Semarang Kota","city":"Semarang","lat":-6.9667,"lng":110.4167},
  {"code":"MLG01","name":"Stasiun Malang Kota","city":"Malang","lat":-7.9839,"lng":112.6214},
  {"code":"SLO01","name":"Stasiun Surakarta (Solo)","city":"Surakarta","lat":-7.5667,"lng":110.8167},
  {"code":"MDN01","name":"Stasiun Medan Kota","city":"Medan","lat":3.5952,"lng":98.6722},
  {"code":"PLB01","name":"Stasiun Palembang Kota","city":"Palembang","lat":-2.9761,"lng":104.7754},
  {"code":"MKS01","name":"Stasiun Makassar Kota","city":"Makassar","lat":-5.1477,"lng":119.4327},
  {"code":"DPS01","name":"Stasiun Denpasar Kota","city":"Denpasar","lat":-8.65,"lng":115.2167},
  {"code":"MTR01","name":"Stasiun Mataram Kota","city":"Mataram","lat":-8.5833,"lng":116.1167},
  {"code":"PDG01","name":"Stasiun Padang Kota","city":"Padang","lat":-0.9471,"lng":100.4172},
  {"code":"PKU01","name":"Stasiun Pekanbaru Kota","city":"Pekanbaru","lat":0.5333,"lng":101.45},
  {"code":"BTM01","name":"Stasiun Batam Kota","city":"Batam","lat":1.0456,"lng":104.0305},
  {"code":"PTK01","name":"Stasiun Pontianak Kota","city":"Pontianak","lat":0.0263,"lng":109.3425},
  {"code":"BJM01","name":"Stasiun Banjarmasin Kota","city":"Banjarmasin","lat":-3.3186,"lng":114.5944},
  {"code":"BPP01","name":"Stasiun Balikpapan Kota","city":"Balikpapan","lat":-1.2675,"lng":116.8289},
  {"code":"SMD01","name":"Stasiun Samarinda Kota","city":"Samarinda","lat":-0.5016,"lng":117.1267},
  {"code":"MND01","name":"Stasiun Manado Kota","city":"Manado","lat":1.4748,"lng":124.8421},
  {"code":"AMB01","name":"Stasiun Ambon Kota","city":"Ambon","lat":-3.6547,"lng":128.1906},
  {"code":"JYP01","name":"Stasiun Jayapura Kota","city":"Jayapura","lat":-2.5337,"lng":140.7181},
  {"code":"KPG01","name":"Stasiun Kupang Kota","city":"Kupang","lat":-10.1772,"lng":123.607},
  {"code":"ACE01","name":"Stasiun Banda Aceh Kota","city":"Banda Aceh","lat":5.5483,"lng":95.3238},
  {"code":"BGR01","name":"Stasiun Bogor Kota","city":"Bogor","lat":-6.595,"lng":106.8167},
  {"code":"DPK01","name":"Stasiun Depok Kota","city":"Depok","lat":-6.4025,"lng":106.7942},
  {"code":"TNG01","name":"Stasiun Tangerang Kota","city":"Tangerang","lat":-6.1783,"lng":106.6319},
  {"code":"BKS01","name":"Stasiun Bekasi Kota","city":"Bekasi","lat":-6.2416,"lng":106.9924},
  {"code":"CRB01","name":"Stasiun Cirebon Kota","city":"Cirebon","lat":-6.732,"lng":108.5523},
  {"code":"TSM01","name":"Stasiun Tasikmalaya Kota","city":"Tasikmalaya","lat":-7.35,"lng":108.2167},
  {"code":"PWT01","name":"Stasiun Purwokerto Kota","city":"Purwokerto","lat":-7.424,"lng":109.2396},
  {"code":"TGL01","name":"Stasiun Tegal Kota","city":"Tegal","lat":-6.8686,"lng":109.14},
  {"code":"KDR01","name":"Stasiun Kediri Kota","city":"Kediri","lat":-7.8167,"lng":112.0167},
  {"code":"JBR01","name":"Stasiun Jember Kota","city":"Jember","lat":-8.1724,"lng":113.7003},
  {"code":"BYW01","name":"Stasiun Banyuwangi Kota","city":"Banyuwangi","lat":-8.2192,"lng":114.3691},
  {"code":"MDI01","name":"Stasiun Madiun Kota","city":"Madiun","lat":-7.6297,"lng":111.5239},
  {"code":"PRB01","name":"Stasiun Probolinggo Kota","city":"Probolinggo","lat":-7.7569,"lng":113.2115},
  {"code":"CLC01","name":"Stasiun Cilacap Kota","city":"Cilacap","lat":-7.726,"lng":109.006},
  {"code":"SKB01","name":"Stasiun Sukabumi Kota","city":"Sukabumi","lat":-6.9271,"lng":106.9299},
  {"code":"SRG01","name":"Stasiun Serang Kota","city":"Serang","lat":-6.12,"lng":106.15},
  {"code":"LMP01","name":"Stasiun Bandar Lampung Kota","city":"Bandar Lampung","lat":-5.4294,"lng":105.2625},
  {"code":"BKL01","name":"Stasiun Bengkulu Kota","city":"Bengkulu","lat":-3.7956,"lng":102.2592},
  {"code":"JMB01","name":"Stasiun Jambi Kota","city":"Jambi","lat":-1.6101,"lng":103.6131},
  {"code":"PKP01","name":"Stasiun Pangkal Pinang Kota","city":"Pangkal Pinang","lat":-2.1291,"lng":106.113},
  {"code":"TJP01","name":"Stasiun Tanjung Pinang Kota","city":"Tanjung Pinang","lat":0.9186,"lng":104.4665},
  {"code":"PKR01","name":"Stasiun Palangka Raya Kota","city":"Palangka Raya","lat":-2.2161,"lng":113.9136},
  {"code":"GTO01","name":"Stasiun Gorontalo Kota","city":"Gorontalo","lat":0.5435,"lng":123.058},
  {"code":"KDI01","name":"Stasiun Kendari Kota","city":"Kendari","lat":-3.9985,"lng":122.5129},
  {"code":"TTE01","name":"Stasiun Ternate Kota","city":"Ternate","lat":0.7893,"lng":127.389},
  {"code":"SOR01","name":"Stasiun Sorong Kota","city":"Sorong","lat":-0.8762,"lng":131.2558}
]